City_ID,City,Lat,Lng,Max Temp,Humidity,Cloudiness,Wind Speed,Country,Date
0,waitangi,-43.9535,-176.5597,12.12,98,100,2.68,NZ,1724967823
1,morris,40.8334,-74.5329,23.1,79,100,3.6,US,1724967782
2,ribeira grande,38.5167,-28.7,24.32,69,20,2.57,PT,1724967894
3,talnakh,69.4865,88.3972,11.77,87,100,2.05,RU,1724967895
4,alotau,-10.3069,150.4462,25.89,77,66,2.26,PG,1724967896
5,tanjung selor,2.8372,117.3642,22.24,95,100,0.99,ID,1724967897
6,alaghsas,17.0187,8.0168,33.41,37,100,3.46,NE,1724967898
7,constitucion,-35.3333,-72.4167,10.39,81,87,2.02,CL,1724967894
8,college,64.8569,-147.8028,15.25,70,75,3.6,US,1724967814
9,adamstown,-25.066,-130.1015,19.07,69,38,6.0,PN,1724967901
10,rio grande,-32.035,-52.0986,14.5,91,100,2.07,BR,1724967627
11,badger,64.8,-147.5333,15.2,79,75,3.6,US,1724967904
12,alofi,-19.0595,-169.9187,23.94,73,75,6.17,NU,1724967905
13,tiksi,71.6872,128.8694,3.11,80,6,2.45,RU,1724967906
14,port alfred,-33.5906,26.891,10.64,77,2,3.24,ZA,1724967907
15,avarua,-21.2078,-159.775,24.03,78,22,4.12,CK,1724967824
16,puerto natales,-51.7236,-72.4875,7.25,65,0,2.57,CL,1724967909
17,puerto san jose,13.9256,-90.8244,30.45,71,31,3.84,GT,1724967910
18,huaicheng,23.9051,112.1931,24.5,93,95,0.48,CN,1724967911
19,georgetown,5.4112,100.3354,27.96,93,20,1.03,MY,1724967820
20,crane,31.3974,-102.3501,33.15,35,43,6.45,US,1724967913
21,tralee,52.2704,-9.7026,11.11,94,100,0.61,IE,1724967915
22,port-aux-francais,-49.35,70.2167,3.51,77,69,14.63,TF,1724967916
23,grytviken,-54.2811,-36.5092,0.38,93,100,0.5,GS,1724967917
24,afaahiti,-17.75,-149.2833,24.39,86,16,4.98,PF,1724967918
25,asau,46.4333,26.4,15.88,94,74,2.64,RO,1724967919
26,taoudenni,22.6783,-3.9836,36.92,29,15,8.83,ML,1724967920
27,al jawf,29.5,38.75,27.28,26,0,3.33,SA,1724967921
28,thompson,55.7435,-97.8558,16.09,100,100,1.03,CA,1724967922
29,stanley,54.868,-1.6985,13.07,85,20,3.09,GB,1724967923
30,ovalle,-30.5983,-71.2003,13.15,58,0,4.0,CL,1724967924
31,mata-utu,-13.2816,-176.1745,26.78,80,21,8.83,WF,1724967926
32,el porvenir,13.7617,-87.3458,32.6,56,31,1.24,HN,1724967927
33,waingapu,-9.6567,120.2641,23.31,80,54,2.02,ID,1724967928
34,atafu village,-8.5421,-172.5159,27.83,78,25,8.02,TK,1724967929
35,edinburgh of the seven seas,-37.0676,-12.3116,11.7,75,12,13.99,SH,1724967930
36,ushuaia,-54.8,-68.3,5.81,75,0,1.54,AR,1724967782
37,shippensburg,40.0507,-77.5203,28.52,87,12,3.15,US,1724967932
38,bredasdorp,-34.5322,20.0403,5.43,85,0,1.85,ZA,1724967933
39,margaret river,-33.95,115.0667,11.68,78,89,8.37,AU,1724967873
40,lospalos,-8.5186,127.0025,20.82,84,84,2.51,TL,1724967935
41,teknaf,20.8624,92.3058,25.86,89,21,3.88,BD,1724967937
42,bosaso,11.2842,49.1816,33.68,46,31,4.7,SO,1724967651
43,felege neway,6.3,36.8833,18.59,82,58,1.17,ET,1724967939
44,punta arenas,-53.15,-70.9167,7.06,70,0,5.14,CL,1724967940
45,isafjordur,66.0755,-23.124,7.77,76,99,5.14,IS,1724967941
46,nova vicosa,-17.8919,-39.3719,23.2,59,44,4.21,BR,1724967715
47,olonets,60.9847,32.9698,12.8,83,13,1.23,RU,1724967943
48,vilyuchinsk,52.9306,158.4028,14.15,69,81,0.29,RU,1724967944
49,wailua homesteads,22.0669,-159.378,27.44,82,100,5.66,US,1724967910
50,acarau,-2.8856,-40.12,25.45,77,10,7.69,BR,1724967703
51,vadso,70.0744,29.7487,11.09,87,0,3.09,NO,1724967948
52,fiambala,-27.6871,-67.6149,13.06,41,0,5.48,AR,1724967949
53,bamako,12.65,-8.0,25.23,94,20,0.51,ML,1724967950
54,conduaga,8.862,117.4893,25.19,92,100,2.12,PH,1724967951
55,ilulissat,69.2167,-51.1,5.01,87,75,1.03,GL,1724967952
56,lihue,21.9789,-159.3672,28.19,79,100,5.66,US,1724967953
57,ascension,30.2169,-90.9001,26.16,97,75,1.54,US,1724967954
58,la'ie,21.6477,-157.9253,31.14,81,10,2.68,US,1724967955
59,bel ombre,-4.6167,55.4167,25.91,83,40,11.32,SC,1724967956
60,albany,42.6001,-73.9662,21.36,77,88,2.12,US,1724967957
61,arraial do cabo,-22.9661,-42.0278,21.92,68,0,8.23,BR,1724967751
62,port mathurin,-19.6833,63.4167,21.83,62,61,12.08,MU,1724967960
63,yemetsk,63.4721,41.7941,10.37,94,10,1.11,RU,1724967962
64,torrington,41.8007,-73.1212,21.3,82,100,0.89,US,1724967963
65,iqaluit,63.7506,-68.5145,8.85,81,100,6.17,CA,1724967964
66,ust'-ilimsk,58.0006,102.6619,7.96,95,9,1.6,RU,1724967965
67,kone,-21.0595,164.8658,24.53,48,2,1.99,NC,1724967966
68,san marcos,33.1434,-117.1661,28.19,63,0,5.14,US,1724967967
69,yellowknife,62.456,-114.3525,17.29,59,75,1.03,CA,1724967810
70,ancud,-41.8697,-73.8203,9.67,76,0,1.58,CL,1724967970
71,georgiyevka,43.0369,74.7114,15.02,67,0,5.0,KZ,1724967971
72,bilibino,68.0546,166.4372,3.79,66,54,0.96,RU,1724967968
73,pearsall,28.8922,-99.095,32.53,46,83,6.16,US,1724967739
74,baker city,44.7749,-117.8344,27.84,10,0,0.0,US,1724967974
75,bonanza,14.0289,-84.591,24.94,97,99,0.47,NI,1724967975
76,northam,51.0333,-4.2167,12.56,91,11,1.53,GB,1724967976
77,chegdomyn,51.1167,133.0167,14.09,100,100,0.6,RU,1724967977
78,petropavlovsk-kamchatsky,53.0452,158.6483,13.33,72,75,4.0,RU,1724967978
79,kodiak,57.79,-152.4072,12.73,76,100,2.57,US,1724967780
80,klyuchi,52.2667,79.1667,16.75,72,100,4.85,RU,1724967981
81,salinopolis,-0.6136,-47.3561,26.7,81,0,6.36,BR,1724967982
82,port elizabeth,-33.918,25.5701,10.16,88,40,3.09,ZA,1724967799
83,metlili chaamba,32.2667,3.6333,33.52,24,0,4.63,DZ,1724967984
84,klaksvik,62.2266,-6.589,10.75,90,64,5.1,FO,1724967985
85,utrik,11.2278,169.8474,28.58,77,16,5.96,MH,1724967986
86,thames,-37.1333,175.5333,13.69,76,92,2.5,NZ,1724967987
87,tobruk,32.0836,23.9764,26.8,70,0,5.59,LY,1724967988
88,xining,36.6167,101.7667,17.66,89,98,0.86,CN,1724967989
89,jaisalmer,26.9147,70.9181,26.81,79,64,6.12,IN,1724967992
90,tionk essil,12.7856,-16.5217,24.81,94,99,2.2,SN,1724967994
91,mount pearl,47.5166,-52.7813,11.75,82,75,8.23,CA,1724967995
92,antonio enes,-16.2325,39.9086,22.55,84,48,2.78,MZ,1724967996
93,axim,4.8699,-2.2405,23.11,94,50,3.02,GH,1724967997
94,saint-philippe,-21.3585,55.7679,20.96,82,60,7.12,RE,1724967998
95,tazovsky,67.4667,78.7,6.33,95,97,4.92,RU,1724968001
96,lively,46.4334,-81.1498,21.68,40,0,2.44,CA,1724968002
97,paracale,14.2804,122.7881,26.0,90,71,2.16,PH,1724968003
98,qaqortoq,60.7167,-46.0333,4.85,98,100,1.66,GL,1724968004
99,pionerskiy,54.9508,20.2275,20.91,66,0,4.27,RU,1724968006
100,aasiaat,68.7098,-52.8699,1.19,91,73,2.87,GL,1724968007
101,hovd,48.0056,91.6419,18.08,46,100,2.0,MN,1724968009
102,coari,-4.085,-63.1414,31.11,41,71,1.17,BR,1724968010
103,marsh harbour,26.5412,-77.0636,28.7,74,100,5.8,BS,1724968011
104,weno,7.4515,151.8468,27.97,83,75,0.0,FM,1724968013
105,berdigestyakh,62.0989,126.6992,7.17,59,82,0.86,RU,1724968015
106,menongue,-14.6585,17.691,15.23,17,55,1.15,AO,1724968016
107,colonia menno,-22.3667,-59.8167,31.85,19,4,4.6,PY,1724968017
108,gamba,-2.65,10.0,22.37,94,68,2.42,GA,1724968019
109,mareeba,-17.0,145.4333,16.8,91,25,1.2,AU,1724968020
110,maralal,1.0968,36.698,15.54,77,58,2.9,KE,1724968021
111,hamilton,39.1834,-84.5333,35.98,48,40,1.54,US,1724968022
112,invercargill,-46.4,168.35,8.9,76,46,5.81,NZ,1724968023
113,santa ana,33.7456,-117.8678,29.95,54,0,4.12,US,1724967861
114,bethel,41.3712,-73.414,22.79,76,100,4.12,US,1724967783
115,saint-francois,46.4154,3.9054,22.04,83,0,1.03,FR,1724968026
116,st. john's,47.5649,-52.7093,12.21,82,75,8.23,CA,1724967878
117,hadibu,12.65,54.0333,26.47,81,97,9.91,YE,1724968029
118,olonkinbyen,70.9221,-8.7187,6.3,89,97,2.16,SJ,1724968030
119,udachny,66.4167,112.4,7.7,68,73,1.56,RU,1724968031
120,coaldale,49.7167,-112.6185,24.55,31,20,6.17,CA,1724967953
121,nar'yan-mar,67.6713,53.087,7.0,66,95,6.82,RU,1724968034
122,redencao,-4.2258,-38.7306,22.66,79,19,1.08,BR,1724968035
123,yuzhno-kurilsk,44.0306,145.8556,18.68,99,100,1.95,RU,1724968036
124,bakanas,44.8081,76.2772,18.83,43,1,2.9,KZ,1724968037
125,kamaishi,39.2667,141.8833,21.45,97,100,0.8,JP,1724968039
126,sao gabriel da cachoeira,-0.1303,-67.0892,27.61,65,83,1.35,BR,1724968040
127,ntoum,0.3833,9.7833,23.95,86,100,2.05,GA,1724968041
128,yoichi,43.2039,140.7703,23.56,83,1,1.85,JP,1724968042
129,turiacu,-1.6633,-45.3717,25.63,79,48,2.73,BR,1724968043
130,puerto baquerizo moreno,-0.9,-89.6,23.55,73,75,7.72,EC,1724968044
131,khanty-mansiysk,61.0042,69.0019,10.06,87,0,1.0,RU,1724968045
132,brisas de zicatela,15.8369,-97.0419,31.29,74,75,3.09,MX,1724968046
133,olyokminsk,60.3736,120.4264,7.59,94,96,1.87,RU,1724968047
134,ulanhot,46.0833,122.0833,17.01,92,60,1.67,CN,1724968048
135,fort bragg,35.139,-79.006,35.75,53,20,0.89,US,1724968050
136,hawaiian paradise park,19.5933,-154.9731,28.83,85,40,4.63,US,1724967842
137,alice springs,-23.7,133.8833,17.75,42,7,0.0,AU,1724968052
138,blackmans bay,-43.0167,147.3167,10.41,74,54,3.13,AU,1724968053
139,kerikeri,-35.2268,173.9474,16.62,90,100,0.89,NZ,1724968054
140,amassoma,4.9692,6.1097,24.27,92,98,2.48,NG,1724968055
141,portland,45.5234,-122.6762,33.64,21,0,6.17,US,1724967998
142,aitape,-3.1374,142.3475,26.49,82,100,1.47,PG,1724968057
143,listowel,52.4464,-9.485,11.45,90,85,1.62,IE,1724968058
144,usinsk,65.9939,57.5281,5.25,92,62,5.18,RU,1724968060
145,negru voda,43.8167,28.2,18.9,92,26,3.03,RO,1724968061
146,papatowai,-46.5619,169.4708,9.16,60,30,7.21,NZ,1724968062
147,beeville,28.4008,-97.7483,32.77,52,85,4.73,US,1724968063
148,fomboni,-12.28,43.7425,24.47,77,5,0.87,KM,1724968064
149,katsuura,35.1333,140.3,26.94,89,100,8.5,JP,1724968065
150,vorkuta,67.5,64.0,5.83,79,100,5.51,RU,1724968066
151,pecos,31.4229,-103.4932,35.05,28,0,2.57,US,1724967900
152,kabba,7.8287,6.0731,21.72,96,100,2.54,NG,1724968068
153,piacabucu,-10.4056,-36.4344,23.56,69,4,4.64,BR,1724968035
154,tofol,5.3248,163.0078,28.85,76,36,6.73,FM,1724968071
155,ceyrat,45.7318,3.0633,21.35,64,0,2.57,FR,1724968072
156,brokopondo,4.75,-55.1667,27.62,74,77,1.2,SR,1724968073
157,pahrump,36.2083,-115.9839,38.02,13,6,3.13,US,1724968074
158,kailua-kona,19.6406,-155.9956,30.15,74,0,4.63,US,1724968075
159,hithadhoo,-0.6,73.0833,28.46,76,72,6.09,MV,1724968076
160,quepos,9.4236,-84.1652,28.2,81,100,1.45,CR,1724968077
161,longyearbyen,78.2186,15.6401,9.91,81,75,5.66,SJ,1724968028
162,businga,3.3333,20.8833,21.66,97,100,0.8,CD,1724968079
163,acapulco de juarez,16.8634,-99.8901,31.9,62,40,2.06,MX,1724968081
164,atvidaberg,58.2015,15.9977,19.66,91,99,3.26,SE,1724968082
165,hermanus,-34.4187,19.2345,6.56,79,0,5.08,ZA,1724968083
166,krasnyy chikoy,50.3643,108.7512,7.46,91,31,0.93,RU,1724968084
167,carnarvon,-24.8667,113.6333,18.15,66,37,8.86,AU,1724967813
168,prokhorovka,51.0374,36.7325,19.66,38,67,3.58,RU,1724968086
169,medvezh'yegorsk,62.9167,34.4667,13.65,87,53,0.78,RU,1724968087
170,mil'kovo,55.6078,37.7956,17.08,63,5,2.35,RU,1724968088
171,ranot,7.7777,100.3213,27.04,81,100,3.74,TH,1724968089
172,jamestown,42.097,-79.2353,25.57,74,100,4.12,US,1724968091
173,nha trang,12.25,109.1833,28.0,81,68,2.86,VN,1724968092
174,zavodskoy,43.4597,132.2922,18.77,94,29,2.0,RU,1724968093
175,luderitz,-26.6481,15.1594,16.75,41,0,3.98,NA,1724968095
176,kuching,1.55,110.3333,24.43,98,20,0.89,MY,1724968096
177,santa maria del oro,25.9333,-105.3667,29.42,31,50,3.31,MX,1724968097
178,west island,-12.1568,96.8225,25.99,73,20,8.75,CC,1724967920
179,yuanping,38.7153,112.7575,18.56,78,19,0.83,CN,1724968100
180,letlhakeng,-24.0944,25.0298,13.42,13,0,3.73,BW,1724968101
181,gazojak,41.1875,61.4036,21.92,29,0,4.75,TM,1724968102
182,colonia,50.9333,6.95,23.25,77,98,2.09,DE,1724968103
183,fiorano,44.536,10.8218,24.69,56,3,1.34,IT,1724968104
184,hirado,33.3597,129.5531,26.79,93,100,13.8,JP,1724968105
185,enewetak,11.3474,162.3373,28.41,76,61,3.97,MH,1724968106
186,cabo san lucas,22.8909,-109.9124,35.17,46,20,1.54,MX,1724968074
187,tangzhai,34.4328,116.5911,22.51,93,0,1.62,CN,1724968108
188,sinabang,2.4803,96.3801,25.53,86,100,1.02,ID,1724968109
189,yemva,62.59,50.8594,11.63,99,97,2.65,RU,1724968111
190,tsiombe,-25.3,45.4833,20.27,83,0,1.94,MG,1724968112
191,puerto ayora,-0.7393,-90.3518,19.75,97,87,2.68,EC,1724968113
192,lakatoro,-16.0999,167.4164,25.35,60,3,3.85,VU,1724968114
193,naze,28.3667,129.4833,26.51,89,59,3.65,JP,1724968115
194,sinan,34.8262,126.1086,24.98,82,0,10.18,KR,1724968117
195,trinidad,-14.8333,-64.9,35.99,34,19,1.03,BO,1724968118
196,sairang,23.8,92.6667,24.39,99,76,0.85,IN,1724968119
197,vetluzhskiy,58.3902,45.4654,12.62,85,0,1.38,RU,1724968122
198,vorgashor,67.5833,63.95,5.53,80,100,5.59,RU,1724968123
199,tamandare,-8.7597,-35.1047,23.44,82,84,6.35,BR,1724968124
200,kununurra,-15.7667,128.7333,18.99,94,64,1.03,AU,1724967872
201,pyt-yakh,60.7499,72.8582,9.06,86,12,4.82,RU,1724968127
202,kavaratti,10.5669,72.642,27.18,82,34,6.65,IN,1724968128
203,arboletes,8.8505,-76.4269,28.91,83,59,3.36,CO,1724968068
204,kingston,17.997,-76.7936,32.53,70,20,10.8,JM,1724968131
205,canon city,38.441,-105.2424,31.5,18,0,2.57,US,1724968132
206,chinde,26.8212,87.7095,24.66,79,4,2.13,NP,1724968133
207,kapa'a,22.0752,-159.319,28.6,77,100,5.66,US,1724968134
208,oqtosh,39.9214,65.9253,19.35,38,0,3.73,UZ,1724968135
209,prince rupert,54.3161,-130.3201,16.05,77,75,2.57,CA,1724968136
210,flying fish cove,-10.4217,105.6791,23.82,83,100,6.17,CX,1724968137
211,mikuni,36.2171,136.1519,25.11,84,100,1.38,JP,1724968138
212,port saint john's,-31.6229,29.5448,13.06,67,52,2.27,ZA,1724968139
213,holualoa,19.6228,-155.9522,28.08,78,0,4.63,US,1724968140
214,isla vista,34.4133,-119.861,25.75,68,6,2.99,US,1724968142
215,al bawiti,28.3492,28.8659,28.61,40,12,3.94,EG,1724968143
216,lebu,-37.6167,-73.65,10.35,86,1,1.68,CL,1724968144
217,ust-nera,64.5667,143.2,4.77,100,100,0.84,RU,1724968145
218,kassiri,8.9372,-13.1244,24.35,92,79,3.89,SL,1724968146
219,kruisfontein,-34.0033,24.7314,6.63,82,0,2.94,ZA,1724967960
220,figuig (centre),32.1089,-1.2286,29.33,27,82,1.75,MA,1724968148
221,kavieng,-2.5744,150.7967,27.6,82,100,6.79,PG,1724968149
222,anadyr,64.75,177.4833,6.28,93,100,4.0,RU,1724968150
223,tefe,-3.3542,-64.7114,33.06,55,20,1.54,BR,1724967930
224,az zulfi,26.2995,44.8154,30.81,15,0,3.65,SA,1724968153
225,peace river,56.2501,-117.286,22.17,40,100,5.14,CA,1724967971
226,happy valley-goose bay,53.3168,-60.3315,18.17,42,75,8.23,CA,1724967878
227,moyale,3.5167,39.0584,21.3,60,34,2.77,KE,1724968156
228,gaalkacyo,6.7697,47.4308,26.43,67,37,9.48,SO,1724968157
229,campbell river,50.0163,-125.2446,23.11,60,20,3.09,CA,1724968059
230,kovalam,8.3667,76.9967,28.05,78,75,3.09,IN,1724968159
231,whitehorse,60.7161,-135.0538,12.43,64,75,6.71,CA,1724967866
232,keflavik,64.0049,-22.5624,8.24,93,75,4.12,IS,1724968161
233,fale old settlement,-9.3852,-171.2468,27.28,78,75,7.65,TK,1724968163
234,labrador city,52.9463,-66.9114,17.95,42,0,4.12,CA,1724967983
235,kupang,-10.1667,123.5833,24.32,88,20,2.57,ID,1724968165
236,antsiranana,-12.2787,49.2917,22.32,77,42,8.41,MG,1724968166
237,kuqa,41.7278,82.9364,23.03,32,100,2.69,CN,1724968167
238,kangding,30.0513,101.9603,17.93,90,100,0.54,CN,1724968168
239,lazaro cardenas,17.9583,-102.2,30.5,68,25,4.9,MX,1724968169
240,arenapolis,-14.4503,-56.8461,31.15,23,0,2.03,BR,1724968172
241,hanceville,34.0607,-86.7675,32.34,65,81,5.16,US,1724968173
242,sola,-13.8833,167.55,26.37,69,75,0.0,VU,1724968174
243,maracacume,-2.0428,-45.9592,27.13,62,79,3.37,BR,1724968175
244,igarka,67.4667,86.5833,12.07,99,100,2.83,RU,1724968177
245,mana,5.6592,-53.7767,26.88,82,37,3.7,GF,1724968181
246,kaiapoi,-43.3783,172.6401,15.04,50,86,3.09,NZ,1724968182
247,zhangjiakou shi xuanhua qu,40.6103,115.0447,20.55,65,0,1.63,CN,1724968183
248,maryborough,-25.5333,152.7,20.92,69,1,1.71,AU,1724968184
249,sihanoukville,10.6093,103.5296,24.97,100,40,0.51,KH,1724968185
250,ad dilam,23.9915,47.1627,33.37,19,5,3.9,SA,1724968186
251,safotu,-13.4513,-172.4018,26.41,80,13,9.71,WS,1724968187
252,westport,41.1415,-73.3579,23.49,76,75,4.12,US,1724967932
253,kapchorwa,1.3965,34.4509,15.09,76,53,1.85,UG,1724968189
254,sault ste. marie,46.5168,-84.3333,22.16,56,0,3.6,CA,1724967943
255,manga,11.6636,-1.0731,23.66,91,95,3.61,BF,1724968192
256,phang nga,8.4509,98.5298,24.27,94,100,0.98,TH,1724968193
257,geneseo,42.7959,-77.8169,21.68,79,43,3.59,US,1724968194
258,mahina,-17.5065,-149.489,28.87,74,0,4.63,PF,1724968195
259,salinas,36.6777,-121.6555,21.05,71,0,6.69,US,1724968196
260,kapuskasing,49.4169,-82.4331,24.0,27,20,5.66,CA,1724968197
261,aguada de pasajeros,22.385,-80.8508,30.7,64,84,3.55,CU,1724968198
262,sitka,57.0531,-135.33,12.94,88,100,5.14,US,1724968199
263,jatibarang,-6.4747,108.3153,23.42,67,90,2.17,ID,1724968200
264,mabaruma,8.2,-59.7833,24.24,98,95,1.9,GY,1724968203
265,bargaal,11.2864,51.0773,28.17,70,26,2.92,SO,1724968204
266,tondano,1.3038,124.9112,20.05,99,100,0.86,ID,1724968205
267,new norfolk,-42.7826,147.0587,11.07,77,40,5.12,AU,1724968206
268,rongelap,11.1635,166.8941,28.54,78,99,6.13,MH,1724968207
269,monrovia,6.3005,-10.7969,24.84,87,79,6.15,LR,1724968208
270,farrokh shahr,32.2717,50.9801,18.59,26,0,3.09,IR,1724968209
271,kirakira,-10.4544,161.9205,27.84,70,83,4.12,SB,1724968210
272,ercis,39.0287,43.3586,19.98,48,4,3.85,TR,1724968212
273,hooper,41.1638,-112.1224,26.66,15,0,3.09,US,1724968213
274,puerto aysen,-45.4,-72.7,6.85,99,21,0.19,CL,1724968214
275,pechora,65.1472,57.2244,8.32,92,57,3.76,RU,1724968216
276,juneau,58.3019,-134.4197,12.0,98,100,5.66,US,1724968128
277,jilin,43.0,126.0,18.61,94,100,1.68,CN,1724968218
278,chita,52.0333,113.55,7.94,81,14,4.0,RU,1724968219
279,chibougamau,49.9168,-74.3659,20.79,37,0,2.57,CA,1724968220
280,grand-bassam,5.2118,-3.7388,23.98,93,50,3.07,CI,1724968221
281,minas de marcona,-15.2119,-75.1103,11.07,77,51,7.71,PE,1724968223
282,castillos,-34.1667,-53.8333,12.78,92,100,3.3,UY,1724968224
283,whitby,54.4877,-0.615,13.26,81,0,1.34,GB,1724968064
284,laboulaye,-34.1266,-63.3912,16.66,43,13,4.18,AR,1724968226
285,galliano,29.4422,-90.2992,29.0,79,0,2.06,US,1724968227
286,pundong,-7.9522,110.3486,21.65,93,100,0.78,ID,1724968228
287,nadi,-17.8,177.4167,25.0,65,20,3.09,FJ,1724968232
288,saipan,15.1355,145.701,29.39,84,40,6.17,MP,1724968233
289,lorengau,-2.0226,147.2712,26.41,88,100,4.18,PG,1724968234
290,kayangel,8.0823,134.7173,28.77,76,100,2.27,PW,1724968235
291,iskateley,67.6803,53.1512,7.0,65,97,6.89,RU,1724968237
292,yelizovo,53.1873,158.3805,14.08,72,75,4.0,RU,1724968238
293,ashburton,-37.8626,145.0794,14.23,71,36,0.89,AU,1724968239
294,cadale,2.7603,46.3222,25.31,86,12,8.11,SO,1724968240
295,sejong,36.4817,127.2871,23.05,89,0,1.45,KR,1724968242
296,gizo,-8.103,156.8419,27.24,81,79,4.75,SB,1724968243
297,samdrup jongkhar,26.9167,91.6167,18.99,87,24,1.9,BT,1724968244
298,don sak,9.3168,99.6918,26.16,81,100,4.68,TH,1724968245
299,cha grande,-8.2383,-35.4617,18.27,94,77,5.48,BR,1724968246
300,uturoa,-16.7333,-151.4333,26.08,82,21,4.6,PF,1724968248
301,codrington,-38.2667,141.9667,11.46,72,11,9.24,AU,1724968249
302,sept-iles,50.2001,-66.3821,21.0,57,20,3.6,CA,1724968251
303,ugoofaaru,5.6667,73.0,28.04,78,79,5.0,MV,1724968252
304,bubaque,11.2833,-15.8333,26.58,82,78,6.03,GW,1724968253
305,al kharj,24.155,47.3346,33.32,19,10,4.46,SA,1724968254
306,bengkulu,-3.8004,102.2655,23.49,94,100,2.02,ID,1724968255
307,lodja,-3.4833,23.4333,23.41,80,99,0.74,CD,1724968256
308,cururupu,-1.8283,-44.8683,24.47,83,35,1.62,BR,1724968257
309,candido de abreu,-24.5669,-51.3333,20.25,52,6,0.81,BR,1724968258
310,sumbe,-11.2061,13.8437,20.61,88,99,4.33,AO,1724968259
311,baharly,38.4362,57.4316,23.18,24,0,2.62,TM,1724968261
312,fisterra,42.9049,-9.2629,18.69,82,0,9.04,ES,1724968262
313,kirensk,57.7853,108.1119,8.0,89,86,1.7,RU,1724968263
314,asheville,35.6009,-82.554,29.99,51,0,3.6,US,1724968093
315,hlevakha,50.2742,30.3271,24.47,31,39,2.64,UA,1724968265
316,san patricio,28.017,-97.5169,33.97,52,83,6.22,US,1724968266
317,shingu,33.7333,135.9833,26.36,94,99,2.21,JP,1724968267
318,nouadhibou,20.931,-17.0347,21.99,78,43,9.26,MR,1724968249
319,ola,59.5833,151.2833,9.69,86,100,8.29,RU,1724968269
320,lompoc,34.6391,-120.4579,22.3,74,0,5.66,US,1724968271
321,jambi city,-1.6,103.6167,24.11,71,100,1.07,ID,1724968272
322,san juan de miraflores,-12.1629,-76.9635,18.43,76,92,6.88,PE,1724968061
323,doctor alberto oviedo mota,32.2275,-115.1697,42.41,14,0,5.0,MX,1724968274
324,madimba,-10.4,40.3333,22.87,86,16,2.56,TZ,1724968275
325,susuman,62.7833,148.1667,6.2,89,100,0.67,RU,1724968276
326,tocopilla,-22.092,-70.1979,14.94,76,14,3.73,CL,1724968277
327,la tuque,47.4334,-72.7824,22.14,40,0,2.06,CA,1724968278
328,hammerfest,70.6634,23.6821,17.25,67,75,2.06,NO,1724968279
329,fedorovskiy,45.0972,40.9517,22.75,41,83,6.27,RU,1724968280
330,tidjikja,18.5564,-11.4271,33.28,50,25,8.25,MR,1724968282
331,novodvinsk,64.4165,40.8122,9.86,94,14,0.1,RU,1724968283
332,zeerust,-25.5369,26.0751,9.93,17,0,2.61,ZA,1724968284
333,dul'durga,50.6761,113.5931,8.15,88,0,1.41,RU,1724968285
334,aljezur,37.3191,-8.8033,16.65,96,69,6.13,PT,1724968286
335,zheshart,62.0731,49.5733,12.1,97,100,2.77,RU,1724968287
336,hede,33.7681,120.2517,22.46,91,0,1.57,CN,1724968288
337,akureyri,65.6835,-18.0878,8.96,81,0,1.03,IS,1724968289
338,labytnangi,66.6572,66.4183,8.46,68,84,3.57,RU,1724968290
339,palu,-0.8917,119.8707,24.02,97,100,0.16,ID,1724968291
340,aksu,41.1231,80.2644,20.34,62,100,2.23,CN,1724968293
341,alatyr',54.8421,46.5813,14.18,74,11,0.93,RU,1724968294
342,shache,38.4167,77.2406,19.87,76,98,1.27,CN,1724968295
343,detroit lakes,46.8172,-95.8453,24.03,69,75,5.66,US,1724968287
344,lewistown,40.5992,-77.5714,28.67,74,75,0.0,US,1724968297
345,vila velha,-20.3297,-40.2925,22.97,72,0,3.09,BR,1724968298
346,carutapera,-1.195,-46.02,25.97,79,6,3.98,BR,1724968299
347,mount gambier,-37.8333,140.7667,11.39,70,0,6.5,AU,1724968300
348,meizhou,24.2977,116.1072,24.44,98,98,0.78,CN,1724968301
349,puerto armuelles,8.2833,-82.8667,28.38,73,98,0.45,PA,1724968231
350,daru,-9.0763,143.2092,25.57,75,99,5.9,PG,1724968257
351,grande prairie,55.1667,-118.8027,23.1,31,75,9.26,CA,1724968305
352,sokol,59.4617,40.1206,12.84,83,7,0.92,RU,1724968306
353,luninyets,52.2472,26.8047,19.83,58,58,3.62,BY,1724968307
354,rikaze,29.25,88.8833,12.24,55,89,1.38,CN,1724968308
355,metu,8.3,35.5833,13.65,98,98,1.44,ET,1724968309
356,makueni boma,-1.8041,37.6203,17.45,81,44,2.61,KE,1724968310
357,polyarnyy,69.1989,33.4478,11.13,75,94,3.77,RU,1724968311
358,mpanda,-6.3655,31.0409,22.21,56,5,0.62,TZ,1724968312
359,kikwit,-5.041,18.8162,27.0,49,89,1.1,CD,1724968314
360,egilsstadir,65.2653,-14.3948,6.95,81,0,2.57,IS,1724968315
361,alba posse,-27.5698,-54.6826,21.58,71,77,1.12,AR,1724968316
362,itaituba,-4.2761,-55.9836,33.09,55,20,2.06,BR,1724968177
363,wanganui,-39.9333,175.05,13.0,71,10,5.98,NZ,1724968318
364,bloomfield,40.8068,-74.1854,24.27,71,100,5.14,US,1724968319
365,horta,38.5333,-28.6333,23.9,79,20,2.68,PT,1724968320
366,point pedro,9.8167,80.2333,27.29,82,100,7.64,LK,1724968321
367,hue,16.4667,107.6,28.06,78,20,2.06,VN,1724968322
368,geraldton,-28.7667,114.6,15.23,72,100,6.17,AU,1724968323
369,camapua,-19.5314,-54.0439,29.37,20,13,3.48,BR,1724968325
370,saint-laurent-du-maroni,5.5039,-54.0289,25.8,78,25,1.47,GF,1724968326
371,santiago de cao,-7.9589,-79.2392,17.07,82,15,6.17,PE,1724968327
372,san antonio de pale,-1.4014,5.6325,24.22,80,66,3.72,GQ,1724968328
373,port augusta,-32.5,137.7667,14.6,85,0,2.83,AU,1724968329
374,merizo village,13.2658,144.6691,28.32,95,100,6.8,GU,1724968330
375,hasaki,35.7333,140.8333,26.72,88,100,8.48,JP,1724968331
376,matola,-25.9622,32.4589,15.97,63,75,7.72,MZ,1724968332
377,sotkamo,64.1333,28.4167,13.23,93,0,2.38,FI,1724968333
378,hirara,24.8,125.2833,28.92,94,40,4.12,JP,1724968334
379,palmer,42.1584,-72.3287,21.96,63,75,1.54,US,1724968336
380,sisimiut,66.9395,-53.6735,5.77,73,71,3.16,GL,1724968337
381,san andres,12.5847,-81.7006,32.01,70,20,6.17,CO,1724968338
382,farafangana,-22.8167,47.8333,20.28,90,56,3.97,MG,1724968339
383,karungdong,5.8844,121.263,24.63,92,100,2.51,PH,1724968340
384,malango,-2.9627,119.9001,18.33,98,99,0.83,ID,1724968341
385,hailar,49.2,119.7,12.08,95,90,3.87,CN,1724968342
386,mhasvad,17.6333,74.7833,22.29,89,90,6.57,IN,1724968343
387,armacao de buzios,-22.7469,-41.8817,22.03,72,0,9.41,BR,1724968346
388,pochinok,54.4068,32.4407,17.73,84,34,3.44,RU,1724968347
389,mili,6.0815,171.735,28.57,78,100,8.04,MH,1724968348
390,dom pedrito,-30.9828,-54.6731,14.35,89,100,3.22,BR,1724968125
391,ujae,8.9322,165.7642,28.77,77,58,6.18,MH,1724968350
392,tynda,55.1667,124.7167,10.98,98,100,1.25,RU,1724968351
393,coracora,-15.0333,-73.7833,15.07,35,97,3.32,PE,1724968352
394,houghton,47.1219,-88.569,23.23,75,0,6.17,US,1724968352
395,okha,53.5739,142.9478,16.62,84,100,1.15,RU,1724968354
396,podporozh'ye,60.9112,34.1706,11.72,89,26,0.71,RU,1724968356
397,jiwani,25.05,61.7417,27.51,84,98,2.09,PK,1724968357
398,santa cruz,-17.8,-63.1667,32.7,37,2,7.72,BO,1724968261
399,rurrenabaque,-14.4413,-67.5278,32.83,58,22,2.06,BO,1724968359
400,walvis bay,-22.9575,14.5053,11.22,83,0,1.32,NA,1724968360
401,tual,-5.6667,132.75,25.66,82,100,9.0,ID,1724968361
402,nagqu,31.5,92.0,1.86,75,3,1.88,CN,1724968362
403,port lincoln,-34.7333,135.8667,13.5,69,0,8.91,AU,1724968363
404,nueva gerona,21.8833,-82.8,30.36,66,83,3.36,CU,1724968364
405,palikir - national government center,6.9248,158.1611,28.47,89,40,2.06,FM,1724968365
406,kargasok,59.0556,80.8572,14.06,95,100,4.16,RU,1724968367
407,remire-montjoly,4.9167,-52.2667,28.02,74,20,1.54,GF,1724968368
408,champerico,14.3,-91.9167,30.1,72,12,4.08,GT,1724968370
409,la concepcion,8.5167,-82.6167,28.66,86,98,1.24,PA,1724968371
410,east london,-33.0153,27.9116,11.98,70,28,3.27,ZA,1724968372
411,tobelo,1.7284,128.0095,25.76,84,100,3.22,ID,1724968373
412,ta`u,-14.2336,-169.5144,24.89,78,100,7.53,AS,1724968374
413,el calafate,-50.3408,-72.2768,4.01,70,100,0.33,AR,1724968375
414,chipinge,-20.1883,32.6236,16.32,86,86,2.93,ZW,1724968376
415,ecoporanga,-18.3733,-40.8306,19.87,57,0,4.14,BR,1724968378
416,greymouth,-42.4667,171.2,10.98,83,56,6.04,NZ,1724968245
417,muleshoe,34.2265,-102.7238,19.37,92,79,8.89,US,1724968380
418,tolanaro,-25.0319,46.9987,22.04,78,0,9.77,MG,1724968381
419,al kharijah,25.4514,30.5464,32.22,24,19,5.43,EG,1724968382
420,lusambo,-4.9667,23.45,23.25,68,28,1.29,CD,1724968383
421,pacific grove,36.6177,-121.9166,20.82,81,40,5.66,US,1724968137
422,salym,60.0625,71.4789,8.25,96,11,3.23,RU,1724968385
423,savonlinna,61.8699,28.88,12.03,100,0,1.54,FI,1724968386
424,natal,-5.795,-35.2094,26.36,73,40,8.23,BR,1724968339
425,bowen,-20.0167,148.2333,19.86,84,4,1.94,AU,1724968389
426,mazatlan,23.2167,-106.4167,32.73,73,44,1.79,MX,1724968202
427,paracuru,-3.41,-39.0306,25.54,76,14,6.9,BR,1724968392
428,pariaman,-0.619,100.12,23.03,87,100,1.35,ID,1724968393
429,nemuro,43.3236,145.575,18.15,99,100,3.07,JP,1724968394
430,tura,25.5198,90.2201,24.5,89,30,1.26,IN,1724968395
431,hengchun,22.0042,120.7439,28.9,75,55,0.34,TW,1724968398
432,papao,-17.75,-149.55,28.82,79,17,2.17,PF,1724968399
433,nov,40.1522,69.3708,18.35,41,0,0.82,TJ,1724968400
434,bayanhongor,46.7167,100.1167,11.4,62,100,1.39,MN,1724968401
435,mugia,43.1041,-9.2179,18.84,84,27,9.66,ES,1724968402
436,augusto correa,-1.0217,-46.635,25.78,80,21,2.37,BR,1724968403
437,lobito,-12.3481,13.5456,20.76,85,93,2.95,AO,1724968404
438,matoury,4.8483,-52.3317,27.98,74,20,1.54,GF,1724968405
439,kencong,-8.2833,113.3667,21.44,92,63,0.99,ID,1724968406
440,caleta de carquin,-11.0925,-77.6267,17.59,77,67,7.41,PE,1724968407
441,richards bay,-28.783,32.0377,12.68,83,100,3.87,ZA,1724968409
442,brainerd,46.358,-94.2008,21.14,86,100,4.63,US,1724968257
443,harstad,68.799,16.5293,14.53,81,41,3.42,NO,1724968412
444,laguna,38.421,-121.4238,35.53,33,0,2.06,US,1724968413
445,sao caetano de odivelas,-0.75,-48.02,26.17,77,34,4.17,BR,1724968414
446,trevelin,-43.0858,-71.4639,8.11,70,0,0.84,AR,1724968415
447,iquique,-20.2208,-70.1431,14.62,77,37,1.87,CL,1724968205
448,narvik,68.4384,17.4272,14.59,79,75,4.29,NO,1724968419
449,genzano di lucania,40.8479,16.0308,16.85,72,26,2.26,IT,1724968420
450,basyayla,36.7534,32.6802,17.84,61,5,3.22,TR,1724968421
451,tshikapa,-6.4167,20.8,26.24,35,10,0.82,CD,1724968422
452,sangin,32.0728,64.8359,29.89,14,95,2.11,AF,1724968423
453,mbanza-ngungu,-5.25,14.8667,23.32,67,68,5.73,CD,1724968424
454,bulawayo,-20.15,28.5833,14.48,81,34,7.9,ZW,1724968425
455,puerto escondido,15.85,-97.0667,30.11,68,99,2.54,MX,1724968426
456,yushu,44.8,126.5333,18.85,97,93,3.54,CN,1724968428
457,heyuan,23.7333,114.6833,25.64,93,62,0.83,CN,1724968429
458,toliara,-23.35,43.6667,21.45,80,9,2.98,MG,1724968430
459,aykhal,66.0,111.5,7.1,65,91,3.23,RU,1724968334
460,saldanha,-33.0117,17.9442,8.03,71,0,5.77,ZA,1724968434
461,norilsk,69.3535,88.2027,12.03,90,100,1.6,RU,1724968435
462,yangjiang,21.85,111.9667,26.18,88,100,1.18,CN,1724968436
463,bozoum,6.3193,16.3799,19.72,97,85,1.44,CF,1724968438
464,sao joao del rei,-21.1356,-44.2617,17.01,55,1,3.69,BR,1724968439
465,bykovo,55.6361,38.0803,17.2,77,0,0.0,RU,1724968440
466,jordan,31.0,36.0,21.22,63,0,4.05,JO,1724968441
467,laojunmiao,39.8333,97.7333,19.73,74,58,1.05,CN,1724968312
468,bikenibeu village,1.3673,173.1241,29.98,70,40,6.17,KI,1724968443
469,luga,58.7372,29.8453,14.21,84,80,1.64,RU,1724968444
470,ishigaki,24.3448,124.1572,27.07,94,15,1.54,JP,1724968445
471,singkil,-7.9855,111.4161,20.64,95,80,2.62,ID,1724968446
472,kristiansund,63.1115,7.732,13.4,94,100,5.14,NO,1724968447
473,christchurch,-43.5333,172.6333,14.95,46,61,3.09,NZ,1724968023
474,mandvi,22.8333,69.3667,25.69,89,100,16.48,IN,1724968450
475,dudinka,69.4058,86.1778,11.22,99,100,1.1,RU,1724968451
476,key west,24.5557,-81.7826,31.67,70,20,6.17,US,1724968399
477,higuera de zaragoza,25.95,-109.2833,33.86,52,39,5.09,MX,1724968454
478,i-n-salah,27.1935,2.4607,36.24,16,33,5.05,DZ,1724968455
479,villa gesell,-37.2639,-56.973,9.24,85,15,5.36,AR,1724968456
480,changji,44.0167,87.3167,18.44,77,75,2.0,CN,1724968457
481,shalqar,47.8333,59.6,23.57,45,7,3.35,KZ,1724968459
482,cidreira,-30.1811,-50.2056,15.08,84,100,1.58,BR,1724968460
483,pontchateau,47.4333,-2.0833,18.83,63,0,4.12,FR,1724968461
484,duba,27.3513,35.6901,30.78,68,2,7.41,SA,1724968462
485,bela vista do paraiso,-22.9967,-51.1906,22.84,30,1,1.74,BR,1724968463
486,schweizer-reneke,-27.1887,25.3293,4.08,23,0,4.64,ZA,1724968464
487,labasa,-16.4167,179.3833,25.46,76,75,3.3,FJ,1724968465
488,banting,2.8167,101.5,25.07,97,100,1.26,MY,1724968466
489,mokhotlong,-29.2894,29.0675,2.92,83,57,3.09,LS,1724968467
490,chadron,42.8294,-102.9999,28.31,18,0,3.6,US,1724968353
491,tailai,46.3833,123.4,17.2,96,86,3.71,CN,1724968470
492,zheleznogorsk-ilimskiy,56.5768,104.1217,10.26,90,100,1.27,RU,1724968471
493,lijiang,26.8688,100.2207,14.5,92,27,1.53,CN,1724968472
494,vernon,50.2581,-119.2691,27.64,36,0,1.03,CA,1724968378
495,nadym,65.5333,72.5167,8.23,78,99,5.85,RU,1724968475
496,broome,42.2506,-75.833,24.7,87,100,3.6,US,1724968476
497,glyn-neath,51.7475,-3.6183,11.28,87,13,0.21,GB,1724968477
498,fortuna,40.5982,-124.1573,21.1,77,0,6.69,US,1724968261
499,odda,60.0691,6.5457,9.22,92,100,2.44,NO,1724968480
500,ulladulla,-35.35,150.4667,19.16,40,26,3.73,AU,1724968481
501,pasuquin,18.3328,120.6177,25.97,100,75,1.54,PH,1724968482
502,siuna,13.7332,-84.7773,28.74,79,98,2.16,NI,1724968483
503,okhotsk,59.3833,143.3,12.24,90,100,3.25,RU,1724968484
504,ceerigaabo,10.6162,47.368,19.19,71,26,6.61,SO,1724968485
505,nannilam,10.8793,79.6106,25.87,82,100,2.67,IN,1724968486
506,masterton,-40.9597,175.6575,12.51,69,1,8.01,NZ,1724968487
507,kuybyshev,55.4475,78.3218,13.39,86,87,4.98,RU,1724968488
508,fuxin,42.0156,121.6589,19.76,96,24,1.1,CN,1724968490
509,mejit,10.2753,170.8646,28.73,76,10,6.33,MH,1724968294
510,ciudad bolivar,8.1222,-63.5497,26.46,78,81,1.63,VE,1724968492
511,monroeville,40.4212,-79.7881,29.97,66,9,5.14,US,1724968493
512,ilebo,-4.3167,20.5833,24.9,58,72,0.79,CD,1724968494
513,yuxia,34.0615,108.6291,24.76,76,63,1.97,CN,1724968495
514,lepsy,46.235,78.9456,18.3,46,7,0.48,KZ,1724968496
515,jesenice,46.4306,14.0669,17.51,97,84,1.5,SI,1724968497
516,arkalyk,50.2486,66.9114,17.56,72,30,3.11,KZ,1724968498
517,sydney,-33.8679,151.2073,19.06,45,0,8.75,AU,1724967938
518,nhandeara,-20.6942,-50.0383,25.74,28,6,3.69,BR,1724968501
519,khovd,48.0056,91.6419,18.08,46,100,2.0,MN,1724968372
520,chuguyevka,44.1653,133.8633,17.95,87,72,1.56,RU,1724968503
521,saudarkrokur,65.7461,-19.6394,8.78,70,71,6.08,IS,1724968504
522,twardogora,51.3649,17.4688,24.11,62,1,1.84,PL,1724968505
523,hastings,50.8552,0.5729,16.55,74,100,4.17,GB,1724968325
524,onega,63.9061,38.1404,11.87,87,19,2.3,RU,1724968507
525,howard springs,-12.497,131.047,23.95,89,43,1.46,AU,1724968316
526,karlivka,49.4567,35.1295,20.9,46,60,3.54,UA,1724968511
527,vilyuysk,63.7553,121.6247,6.19,72,99,0.74,RU,1724968512
528,bandrele,-12.9067,45.1914,24.86,78,0,5.14,YT,1724968513
529,wewak,-3.5534,143.6268,27.01,83,100,0.53,PG,1724968514
530,montmagny,48.9734,2.3469,20.62,57,100,4.63,FR,1724968515
531,tomatlan,19.9333,-105.25,26.74,90,99,1.03,MX,1724968516
532,smidovich,48.6,133.8167,18.96,96,100,2.78,RU,1724968517
533,ambon,-3.6954,128.1814,25.49,95,87,3.28,ID,1724968519
534,cromer,52.9312,1.2989,15.08,65,97,2.22,GB,1724968520
535,rakops,-21.0167,24.3333,18.39,19,0,4.39,BW,1724968521
536,tuy hoa,13.0833,109.3,26.11,76,78,7.14,VN,1724968522
537,harper,4.375,-7.7169,24.39,86,100,4.7,LR,1724968523
538,decazeville,44.5605,2.2509,21.38,71,77,1.22,FR,1724968524
539,kaya,13.0917,-1.0844,25.4,82,83,4.89,BF,1724968525
540,santarem,-2.4431,-54.7083,31.07,70,20,1.54,BR,1724968526
541,lulea,65.5842,22.1547,14.04,88,0,4.12,SE,1724968482
542,nova olimpia,-14.7972,-57.2881,33.29,21,20,2.1,BR,1724968530
543,westerland,54.9079,8.3033,16.07,88,20,4.12,DE,1724968531
544,hoquiam,46.9809,-123.8893,27.75,40,0,4.63,US,1724968532
545,birao,10.2849,22.7882,22.37,95,100,2.0,CF,1724968533
546,mutoko,-17.397,32.2268,17.13,62,78,3.13,ZW,1724968535
547,kenora,49.8167,-94.4337,18.54,94,100,8.23,CA,1724968395
548,artigas,-30.4,-56.4667,14.39,86,95,5.31,UY,1724968537
549,khandyga,62.6667,135.6,6.2,93,21,2.23,RU,1724968538
550,macas,-2.3167,-78.1167,25.86,50,40,2.57,EC,1724968539
551,oeiras do para,-2.0031,-49.8544,29.04,49,63,1.88,BR,1724968540
552,kourou,5.1552,-52.6478,26.51,85,95,3.15,GF,1724968541
553,grand-lahou,5.1367,-5.0242,22.94,94,64,3.39,CI,1724968542
554,veraval,20.9,70.3667,27.33,87,100,8.3,IN,1724968543
555,touros,-5.1989,-35.4608,24.42,77,89,7.62,BR,1724968544
556,marina,36.6844,-121.8022,21.05,79,40,6.69,US,1724968545
557,swift current,50.2834,-107.8014,21.45,56,75,8.23,CA,1724968547
558,saint-joseph,-21.3667,55.6167,19.21,80,32,6.11,RE,1724968548
559,salalah,17.0151,54.0924,26.05,94,100,1.54,OM,1724968549
560,pokhara,28.2333,83.9833,20.32,83,92,2.3,NP,1724968550
561,murghob,38.1702,73.9667,9.4,41,97,1.9,TJ,1724968551
562,saposoa,-6.934,-76.7716,33.79,32,7,1.91,PE,1724968552
563,deqen,29.9618,90.7188,6.76,60,0,1.59,CN,1724968553
